[
  {
    "id": "1",
    "name": "St. Mary's Medical Center",
    "type": "Hospital",
    "ownership": "Non-Profit",
    "accreditation": ["Joint Commission", "NCQA"],
    "rating": 4.5,
    "bedCount": 450,
    "address": "1234 Medical Drive, San Francisco, CA 94102",
    "city": "San Francisco",
    "state": "CA",
    "zip": "94102",
    "phone": "(415) 555-0123",
    "email": "info@stmarys.org",
    "website": "https://www.stmarys.org",
    "summary": "Leading medical center providing comprehensive healthcare services with state-of-the-art facilities and expert medical staff.",
    "verified": true,
    "latitude": 37.7749,
    "longitude": -122.4194
  },
  {
    "id": "2",
    "name": "Westside Urgent Care",
    "type": "Urgent Care",
    "ownership": "Private",
    "accreditation": ["UCAOA"],
    "rating": 4.2,
    "bedCount": 0,
    "address": "789 Wellness Ave, Los Angeles, CA 90001",
    "city": "Los Angeles",
    "state": "CA",
    "zip": "90001",
    "phone": "(213) 555-0456",
    "email": "contact@westsideuc.com",
    "website": "https://www.westsideuc.com",
    "summary": "Walk-in urgent care facility offering prompt medical attention for non-life-threatening conditions.",
    "verified": true,
    "latitude": 34.0522,
    "longitude": -118.2437
  },
  {
    "id": "3",
    "name": "Riverside Mental Health Center",
    "type": "Mental Health",
    "ownership": "Public",
    "accreditation": ["CARF", "Joint Commission"],
    "rating": 4.8,
    "bedCount": 120,
    "address": "456 Riverside Pkwy, Austin, TX 78701",
    "city": "Austin",
    "state": "TX",
    "zip": "78701",
    "phone": "(512) 555-0789",
    "email": "info@riversideMH.org",
    "website": "https://www.riversideMH.org",
    "summary": "Comprehensive mental health services including inpatient, outpatient, and crisis intervention programs.",
    "verified": true,
    "latitude": 30.2672,
    "longitude": -97.7431
  },
  {
    "id": "4",
    "name": "Eastside Community Clinic",
    "type": "Clinic",
    "ownership": "Non-Profit",
    "accreditation": ["NCQA"],
    "rating": 4.0,
    "bedCount": 0,
    "address": "321 Health St, Boston, MA 02101",
    "city": "Boston",
    "state": "MA",
    "zip": "02101",
    "phone": "(617) 555-0321",
    "email": "info@eastsideclinic.org",
    "website": "https://www.eastsideclinic.org",
    "summary": "Community-focused primary care clinic serving low-income families with quality healthcare.",
    "verified": false,
    "latitude": 42.3601,
    "longitude": -71.0589
  },
  {
    "id": "5",
    "name": "Metropolitan General Hospital",
    "type": "Hospital",
    "ownership": "Public",
    "accreditation": ["Joint Commission", "CARF"],
    "rating": 4.6,
    "bedCount": 650,
    "address": "555 Hospital Plaza, New York, NY 10001",
    "city": "New York",
    "state": "NY",
    "zip": "10001",
    "phone": "(212) 555-0888",
    "email": "info@metrogen.org",
    "website": "https://www.metrogen.org",
    "summary": "Major metropolitan hospital providing advanced trauma care, surgical services, and specialized medical treatments.",
    "verified": true,
    "latitude": 40.7128,
    "longitude": -74.0060
  },
  {
    "id": "6",
    "name": "Northside Family Practice",
    "type": "Clinic",
    "ownership": "Private",
    "accreditation": ["NCQA"],
    "rating": 4.3,
    "bedCount": 0,
    "address": "987 Family Way, Seattle, WA 98101",
    "city": "Seattle",
    "state": "WA",
    "zip": "98101",
    "phone": "(206) 555-0567",
    "email": "contact@northsidefp.com",
    "website": "https://www.northsidefp.com",
    "summary": "Full-service family medicine practice offering preventive care, chronic disease management, and wellness programs.",
    "verified": true,
    "latitude": 47.6062,
    "longitude": -122.3321
  }
]

